[{"id":0,"rating":5,"vType":"-веган-","phone":["+359878878342"],"imageUrl":"http://vegankitsch.com/images/vegankitschn_site_2.jpg","links":["http://vegankitsch.com/en/","https://www.facebook.com/VeganKitsch"],"description":"'Vegan Kitsch - burgers & raw sweet' offers fresh homemade vegan food - fast food in a new light. Small modern bakery, cafe and known as Kurabiynitsa.","latitude":"42.690588","longitude":"23.320846","name":"Веган Китч","workingTime":["09:00–19:00","09:00–19:00","09:00–19:00","09:00–19:00","09:00–19:00","09:00–19:00",""],"town":"София","address":"ул. 'Парчевич' 48"},{"id":1,"rating":5,"vType":"-вегетариански-","phone":["+35929834333","+359878577597"],"imageUrl":"http://the-vegan.org/wp-content/uploads/2014/04/905515_10151550712942446_1020992298_o.jpg","links":["http://kring.bg/","https://www.facebook.com/KringFan"],"description":"Healthy food restaurant, with vegetarian and vegan (mostly) meals. Specialties - meals with tempeh and seitan, vegan doner kebab/Shawarma, tacos, cakes, muffins and more...","latitude":"42.701085","longitude":"23.324769","name":"Кринг","workingTime":["11:00–21:00","11:00–21:00","11:00–17:00","11:00–21:00","11:00–21:00","12:00–21:00",""],"town":"София","address":"ул. 'Цар Симеон' 72"},{"id":2,"rating":5,"vType":"-веган-","phone":["+359888061111"],"imageUrl":"http://i.imgur.com/G6zUTal.jpg?1","links":[],"description":"","latitude":"42.689386","longitude":"23.327623","name":"Сладкишница (Зелен Био)","workingTime":["10:00–20:00","10:00–20:00","10:00–20:00","10:00–20:00","10:00–20:00","10:00–20:00","11:00–19:00"],"town":"София","address":"ул. 'Цар Иван Шишман' 43"},{"id":3,"rating":5,"vType":"-веган-","phone":["+359893397561"],"imageUrl":"","links":["https://www.facebook.com/Veganika"],"description":"","latitude":"","longitude":"","name":"ВегАника","workingTime":["10:00–21:00","10:00–21:00","10:00–21:00","10:00–21:00","10:00–21:00","10:00–21:00",""],"town":"Варна","address":"ул. 'Цар Асен I' 54"},{"id":4,"rating":5,"vType":"-веган-","phone":["+359879588988"],"imageUrl":"","links":["http://www.veggic.bg","https://www.facebook.com/Veggic"],"description":"","latitude":"42.144353","longitude":"24.745681","name":"Веджик","workingTime":["09:00–21:00","09:00–21:00","09:00–21:00","09:00–21:00","09:00–21:00","09:00–21:00",""],"town":"Пловдив","address":"ул. 'Гроздов Пазар' 1A"},{"id":5,"rating":5,"vType":"-вегетариански-","phone":["+35952636131"],"imageUrl":"https://fbcdn-sphotos-d-a.akamaihd.net/hphotos-ak-xpf1/v/t1.0-9/s720x720/10801679_629862037124525_3460802664286764452_n.jpg?oh=b4237e0551d69cd043a4175ead1b481c&oe=5522E3CD&__gda__=1433363056_53b96328fc3a2761d2a5f3e0b679c465","links":["https://www.facebook.com/TheHatoriPlace"],"description":"","latitude":"43.203788","longitude":"27.913765","name":"Хатори","workingTime":["10:00–19:00","10:00–19:00","10:00–19:00","10:00–19:00","10:00–19:00","10:00–19:00","11:00–17:00"],"town":"Варна","address":"ул. 'Драгоман' 9"},{"id":6,"rating":5,"vType":"-вегетариански-","phone":["+359899138411"],"imageUrl":"http://sunmoon.bg/i/content/39/51_1_restaurant_silde_1.png","links":["http://sunmoon.bg/restaurant"],"description":"","latitude":"42.689611","longitude":"23.325422","name":"Слънце Луна","workingTime":["08:30–22:00","08:30–22:00","08:30–22:00","08:30–22:00","08:30–22:00","08:30–22:00","08:30–21:00"],"town":"София","address":"ул. '6-ти Септември' 39"},{"id":7,"rating":5,"vType":"-вегетариански-","phone":["+359 897 094139"],"imageUrl":"","links":["http://sunmoon.bg/restaurant"],"description":"","latitude":"42.691899","longitude":"23.317209","name":"Слънце Луна 2","workingTime":["08:30–22:00","08:30–22:00","08:30–22:00","08:30–22:00","08:30–22:00","08:30–22:00","08:30–21:00"],"town":"София","address":"ул. 'У. Гладстон' 18Б"},{"id":8,"rating":5,"vType":"-веган-","phone":["+359876440003"],"imageUrl":"","links":[],"description":"","latitude":"42.684362","longitude":"23.327338","name":"Соул Китчън","workingTime":["10:00–24:00","10:00–24:00","10:00–24:00","10:00–24:00","10:00–24:00","10:00–24:00","10:00–24:00"],"town":"София","address":"ул. 'Кокиче' 13"},{"id":9,"rating":5,"vType":"-вегетариански-","phone":["+35929808163"],"imageUrl":"https://scontent-b.xx.fbcdn.net/hphotos-xaf1/v/t1.0-9/549447_342744842439648_1286050609_n.jpg?oh=e69606075c6f9182a4d6a528281a0117&oe=556DDD86","links":["https://www.facebook.com/pages/DreamHouse/148103941903740"],"description":"","latitude":"42.694763","longitude":"23.321235","name":"Дрийм Хаус","workingTime":["11:00–22:00","11:00–22:00","11:00–22:00","11:00–22:00","11:00–22:00","11:00–22:00","12:0–18:00"],"town":"София","address":"ул. 'Алабин' 50A (2ри етаж)"},{"id":10,"rating":5,"vType":"-вегетариански-","phone":["+359894488809"],"imageUrl":"","links":["https://www.facebook.com/YogaMandala"],"description":"","latitude":"42.704137","longitude":"23.323973","name":"Сома Витал (Мандала)","workingTime":["09:00–21:30","09:00–21:30","09:00–21:30","09:00–21:30","09:00–21:30","09:00–21:30","09:00–21:30"],"town":"София","address":"ул. 'Княгиня Мария Луиза' 58"},{"id":11,"rating":5,"vType":"-веган-","phone":["+359878464514"],"imageUrl":"","links":["http://vanillka.com","https://www.facebook.com/vanillakitchenbg"],"description":"","latitude":"42.702248","longitude":"23.335527","name":"Ванила Китчън","workingTime":["11:00–19:00","11:00–19:00","11:00–19:00","11:00–19:00","11:00–19:00","10:00–18:00","10:00–16:00"],"town":"София","address":"ул. 'Христо Ковачев' 30"},{"id":12,"rating":5,"vType":"-вегетариански-","phone":["+359882108108"],"imageUrl":"http://www.vedahouse.bg/images/stories/Veda_София4/P1210069.JPG","links":["http://www.vedahouse.bg"],"description":"","latitude":"42.692310","longitude":"23.314970","name":"Веда Хаус","workingTime":["10:30–23:00","10:30–23:00","10:30–23:00","10:30–23:00","10:30–23:00","10:30–23:00","10:30–23:00"],"town":"София","address":"ул. 'У. Гладстон' 2"}]